stop_id,stop_code,stop_name,stop_desc,stop_lat,stop_lon,zone_id,stop_url,location_type,parent_station
1,120S,Tunis Ville,,36.79476927,10.18038057,,,0,
2,125Z,DEPOT FARHAT HACHED,,36.78403921,10.19189873,,,0,
3,130E,Jebel Jelloud,,36.77272513,10.2082258,,,0,
4,141S,MEGRINE RYADH,,36.77027429,10.22290038,,,0,
5,142T,MEGRINE,,36.76832703,10.23391826,,,0,
6,143W,SIDI REZIG,,36.76733357,10.24454539,,,0,
7,146Y,Rades,,36.76836038,10.26973502,,,0,
8,146Z,RADES MELIANE,,36.76297691,10.28427308,,,0,
9,151E,EZ-ZAHRA,,36.74680017,10.30704949,,,0,
10,152F,LYCEE EZZAHRA,,36.7390405,10.31796465,,,0,
11,153G,BOU KORNINE,,36.73479491,10.32393414,,,0,
12,154H,Hammam Lif,,36.72943925,10.3342066,,,0,
13,155J,ARRET DU STADE,,36.72344359,10.34820811,,,0,
14,158M,TAHAR SFAR,,36.71752391,10.35967425,,,0,
15,156K,HAMMAM CHAT,,36.71360031,10.36940508,,,0,
16,159N,BIR EL BEY,,36.71024971,10.3786432,,,0,
17,157L,Borj Cedria,,36.70348221,10.39742907,,,0,
18,160P,Erriadh,,36.69827887,10.42151708,,,0,
19,144X,LYCEE TECHNIQUE RADES,,36.76678685,10.26084366,,,0,
20,224R,Nabeul Voyageurs,,36.45103216,10.73510445,,,0,
21,225S,Nabeul Marchandises,,36.43213878,10.69395762,,,0,
22,226T,M'Razga,,36.42811113,10.68101957,,,0,
23,223P,Omar Khayem,,36.42396851,10.66892545,,,0,
24,222N,Hammamet,,36.40764041,10.61245796,,,0,
25,221M,Bir Bou Regba,,36.4306822,10.57374512,,,0,
26,166Y,Bou Arkoub,,36.53107528,10.55141793,,,0,
27,165X,BELLI,,36.56060928,10.52496504,,,0,
28,164W,TURKI,,36.57550041,10.51353227,,,0,
29,163T,Grombalia,,36.59634435,10.49772187,,,0,
30,162S,Khanguet,,36.62485286,10.46139977,,,0,
31,161R,Foundouk Jedid,,36.66891685,10.44671329,,,0,
32,233C,Sousse Sud,,35.80017296,10.64992398,,,0,
33,231A,SOUSSE BAB JEDID,,35.823063,10.64159279,,,0,
34,232B,SOUSSE MOHAMED V,,35.81599388,10.64324748,,,0,
35,234D,Sousse Zone industrielle,,35.7821012,10.66837618,,,0,
36,235E,Sahline,,35.75957863,10.70145588,,,0,
37,236F,Sahline Sebkha,,35.7576841,10.71653661,,,0,
38,239J,Les Hotels Monastir,,35.7601219,10.74489186,,,0,
39,237G,AEROPORT SKANES MONASTIR,,35.76251566,10.75409804,,,0,
40,240K,La Faculte monastir,,35.75961668,10.80735965,,,0,
41,238H,Monastir,,35.77062632,10.82529066,,,0,
42,1003,Aig-SS-L22,,0.0,0.0,,,0,
43,241L,Monastir Zone industrielle,,35.74018355,10.82040157,,,0,
44,242M,Khniss Bembla,,35.70904477,10.81243414,,,0,
45,243N,Ksiba Bennane,,35.68004136,10.8426818,,,0,
46,244P,Bouhjar,,35.67235048,10.86763039,,,0,
47,245R,Lamta,,35.67019075,10.88283518,,,0,
48,246S,Sayada,,35.66606349,10.88817958,,,0,
49,247T,Ksar Hellal zone industrielle,,35.65192285,10.8986172,,,0,
50,248W,Ksar Helal ,,35.64514422,10.90091172,,,0,
51,249X,Moknine Gribaa,,35.63799717,10.90690937,,,0,
52,260J,Moknine,,35.63128285,10.91560693,,,0,
53,270X,Teboulba Zone industrielle,,35.63374675,10.94349548,,,0,
54,261K,Teboulba,,35.63771689,10.96163178,,,0,
55,262L,Bekalta,,35.615241,10.98936452,,,0,
56,264N,Baghdadi,,35.56953177,11.0184244,,,0,
57,MahZT,Mahdia Zone Touristique,,0.0,0.0,,,0,
58,271Y,Sidi Messaoud,,35.52107205,11.02721343,,,0,
59,266R,Borj Arif,,35.50619251,11.03036324,,,0,
60,268T,Mahdia Ezzahra,,35.50004285,11.04831801,,,0,
61,267S,Mahdia,,35.50077491,11.06427159,,,0,
62,Aig0730,Aiguille 0+730,,0.0,0.0,,,0,
63,BAN,Bir Aniba,,0.0,0.0,,,0,
64,612D,Mannouba,,36.81612972,10.10110789,,,0,
65,614F,Jedeida,,36.85079747,9.93345127,,,0,
66,671Z,Chaouat,,36.88948144,9.94447096,,,0,
67,672A,Sidi Othman,,36.96003895,9.92471303,,,0,
68,673B,Ain Ghelal,,37.02336071,9.83278994,,,0,
69,674C,Mateur,,37.03811035,9.68442172,,,0,
70,692Z,Tinja,,37.15949621,9.75721346,,,0,
71,703L,La Pecherie,,37.25412318,9.83940251,,,0,
72,710W,Bizerte,,37.266437,9.86390027,,,0,
73,110F,Tunis PV,,36.79237613,10.18876887,,,0,
74,621N,Tebourba,,36.82916026,9.84436545,,,0,
75,623R,Borj Toum,,36.78765992,9.76155658,,,0,
76,625T,Mejez El Bab,,36.66572529,9.60651055,,,0,
77,627X,Oued Zarga,,36.67325366,9.42664993,,,0,
78,631B,Sidi M'Himech,,36.78254734,9.27930806,,,0,
79,633D,Beja Voyageurs,,36.72486817,9.1901878,,,0,
80,635F,Mastouta,,36.66161266,9.20907893,,,0,
81,661L,Sidi Smail,,36.59551755,9.11189895,,,0,
82,642N,Bou Salem,,36.61123811,8.96887978,,,0,
83,643P,Ben Bachir,,36.59181891,8.905504,,,0,
84,645S,Jendouba Voyageurs,,36.50123609,8.77725543,,,0,
85,652B,Oued Meliz,,36.46961658,8.55133481,,,0,
86,657G,Ghardimaou,,36.44776829,8.43720421,,,0,
87,172E,Bouficha,,36.30330242,10.45122202,,,0,
88,174G,Enfida,,36.13073109,10.38363977,,,0,
89,181P,Menzel Gare,,36.01052907,10.37754499,,,0,
90,182R,Sidi Bou Ali,,35.95315445,10.45133325,,,0,
91,183S,Kala Kebira,,35.86784303,10.55341541,,,0,
92,191C,Kala Sghira,,35.82166731,10.57084812,,,0,
93,193E,Sousse,,35.83042462,10.63805168,,,0,
94,192D,Sousse Mses,,35.77792989,10.57723653,,,0,
95,251Z,M'SAKEN,,35.73043321,10.60148917,,,0,
96,202P,KERKER,,35.46827613,10.65970431,,,0,
97,204S,EL JEM,,35.29256581,10.70958015,,,0,
98,212C,LA HENCHA,,35.13746137,10.72839878,,,0,
99,214E,DOKHANE,,34.99094247,10.76088592,,,0,
100,216G,SIDI SALAH,,34.85801931,10.76734343,,,0,
101,450K,SFAX,,34.73515066,10.76712362,,,0,
102,461Z,SIDI ABID,,34.69544765,10.70230586,,,0,
103,462A,GARGOUR,,34.57281196,10.57788205,,,0,
104,463B,MAHARES,,34.52626256,10.49869317,,,0,
105,464C,CHAAL,,34.5164299,10.3442373,,,0,
106,465D,GHRAIBA,,34.49965896,10.2137336,,,0,
107,471K,HAMADA,,34.37870022,10.11725096,,,0,
108,472L,SKHIRA,,34.30043182,10.06885059,,,0,
109,475P,AOUINET,,33.98532631,10.0037656,,,0,
110,481Y,GHANNOUCH,,33.92158585,10.07692438,,,0,
111,488F,GABES,,33.88422466,10.09919458,,,0,
112,215F,SAKIET EZZIT,,34.80071603,10.76127026,,,0,
113,363G,Dahmani,,35.94517744,8.82870401,,,0,
114,362F,Les Zouarines,,36.04035383,8.91408379,,,0,
115,401C,Les Salines,,36.07777438,8.96401745,,,0,
116,355Y,Le Sers,,36.0759795,9.02323349,,,0,
117,354X,Trika,,36.13245212,9.11290852,,,0,
118,353W,Sidi Bou Rouis,,36.17532219,9.12509411,,,0,
119,352T,Le Krib,,36.25349785,9.18513063,,,0,
120,351S,El Akhouat,,36.25508993,9.25495605,,,0,
121,340E,Gaafour,,36.32265545,9.32659756,,,0,
122,336A,Sidi Ayed,,36.35121247,9.39091717,,,0,
123,335Z,El Aroussa,,36.38115848,9.45455639,,,0,
124,333X,Bou Arada,,36.35646264,9.62690259,,,0,
125,323J,Pont du Fahs,,36.37667594,9.9024049,,,0,
126,321G,Depienne,,36.4572093,10.0235804,,,0,
127,317C,Bir M'Cherga,,36.50621051,10.02188307,,,0,
128,316B,Cheylus,,36.55541907,10.06085561,,,0,
129,314Z,Oudna,,36.62535991,10.15112011,,,0,
130,313Y,Khledia,,36.64614243,10.19449038,,,0,
131,312X,Nassen,,36.70357559,10.23280405,,,0,
132,311W,Bir Kassa,,36.74107512,10.22850758,,,0,
133,364H,Ain Mesria,,35.91218549,8.7393168,,,0,
134,411N,Fej Tameur,,35.87816472,8.70780693,,,0,
135,371R,Gouraia,,35.85843977,8.68462775,,,0,
136,372S,Oued Sarrath,,35.76635461,8.61861496,,,0,
137,373T,Kalaa Khasba,,35.66367279,8.59225524,,,0,
138,390N,Kasserine,,35.16740157,8.83470423,,,0,
139,382E,Foussana,,35.3492711,8.62501112,,,0,
140,381D,Haidra,,35.56602116,8.44823772,,,0,
141,414S,Jerissa,,35.85025009,8.65280733,,,0,
142,553H,Tozeur,,33.92655473,8.13578075,,,0,
143,552G,Degueche,,33.98685649,8.21327222,,,0,
144,551F,Kriz,,34.03312354,8.24303992,,,0,
145,522X,Metlaoui,,34.31577658,8.41642525,,,0,
146,521W,MG 28/29,,34.32037192,8.50945513,,,0,
147,520T,Cheria,,34.34078748,8.60608406,,,0,
148,541T,Aguila,,34.37963342,8.76840129,,,0,
149,510G,Gafsa,,34.39470914,8.80389733,,,0,
150,505B,Oued El Ksab (MG23),,34.45057735,8.95669273,,,0,
151,504A,Zannouch,,34.46862761,9.05222719,,,0,
152,502Y,Sened,,34.5380285,9.25351221,,,0,
153,501X,Menzel Bouzaiane,,34.57594818,9.45800047,,,0,
154,495N,Maknassy,,34.60669309,9.60643853,,,0,
155,493L,Mezzouna,,34.57396917,9.84183355,,,0,
156,491J,Founi,,34.51622276,10.04313763,,,0,
157,542W,M'Dhilla,,34.2919887,8.72436,,,0,
158,535L,Tabeddit,,34.43647518,8.25930684,,,0,
159,537N,Moulares,,34.48706256,8.27735654,,,0,
160,532H,Selja,,34.38534241,8.33995409,,,0,
161,531G,Magroun,,34.33313395,8.39444531,,,0,
162,444D,Magen Bel Abbes,,34.75008642,8.51951948,,,0,
163,533J,El Ayoun,,34.42800174,8.28926205,,,0,
164,536M,Redeyef,,34.38800844,8.1524871,,,0,
165,300G,La Goullette,,36.80668461,10.29095775,,,0,
166,171D,SIDI MTIR,,36.38695847,10.50296362,,,0,
167,173F,AIN RAHMA,,36.2263937,10.42694944,,,0,
168,567A,MG 4,,34.01121828,9.84561165,,,0,
169,435S,El Fejij,,34.06585616,9.73624944,,,0,
170,564X,Segui,,34.17423301,9.40562877,,,0,
171,562T,MG 1,,34.22520071,9.16668193,,,0,
172,561S,El Guetar,,34.3301217,8.94962543,,,0,
173,1000,Aig-Msaken-L5,,0.0,0.0,,,0,
174,1001,Aig-Msaken-L12,,0.0,0.0,,,0,
175,404F,Le Kef,,36.16673292,8.70368159,,,0,
